ID,Name,Date,Time,Lon,Lat,Altitude,North,Azimuth,Cam. Maker,Cam. Model,Title,Comment,Path,RelPath,Timestamp,Images,suiri-type
703ef153-de6b-4d48-aced-125e518b5c3e,ichishiba-2.jpeg,2022/11/13,10:27:22,131.024872222222,31.5578388888889,106.66612244898,T,149.72027972028,Apple,iPhone 11 Pro Max,,,/Users/soo-densan/Desktop/月野水利マップ_from20230912/img/suiri-pictures/ichishiba-2.jpeg,./suiri-pictures/ichishiba-2.jpeg,2022/11/13 10:27:22,"<img src = ""./suiri-pictures/ichishiba-2.jpeg"" width=""300"" height=""225""/>",suisou
97af7b0b-8778-416c-9758-df2786793fc3,fujigamine1.jpeg,2020/03/01,10:18:21,130.987594444444,31.5482694444444,183.249969471242,T,218.743743743744,Apple,iPhone X,,,/Users/soo-densan/Desktop/月野水利マップ_from20230912/img/suiri-pictures/fujigamine1.jpeg,./suiri-pictures/fujigamine1.jpeg,2020/03/01 10:18:21,"<img src = ""./suiri-pictures/fujigamine1.jpeg"" width=""300"" height=""225""/>",suisou
2fe39e30-a1b6-480e-8802-b1956b9de5fd,hachigoubaru-2.jpeg,2022/11/13,09:57:01,131.019225,31.5786833333333,172.725936811168,T,329.581146223889,Apple,iPhone 11 Pro Max,,,/Users/soo-densan/Desktop/月野水利マップ_from20230912/img/suiri-pictures/hachigoubaru-2.jpeg,./suiri-pictures/hachigoubaru-2.jpeg,2022/11/13 09:57:01,"<img src = ""./suiri-pictures/hachigoubaru-2.jpeg"" width=""300"" height=""225""/>",suisou
867906b8-853c-47e2-b589-5b99036600f5,ookubo-1.jpeg,2022/11/13,10:11:31,131.019316666667,31.5706527777778,174.192133815552,T,247.975937066173,Apple,iPhone 11 Pro Max,,,/Users/soo-densan/Desktop/月野水利マップ_from20230912/img/suiri-pictures/ookubo-1.jpeg,./suiri-pictures/ookubo-1.jpeg,2022/11/13 10:11:31,"<img src = ""./suiri-pictures/ookubo-1.jpeg"" width=""300"" height=""225""/>",suisou
7d270b7c-51bf-4e4a-9a90-e585c9ad9d4d,nishitakeyama-1.jpeg,2022/11/13,09:43:28,131.024522222222,31.5698833333333,169.553116147309,T,59.4120788824979,Apple,iPhone 11 Pro Max,,,/Users/soo-densan/Desktop/月野水利マップ_from20230912/img/suiri-pictures/nishitakeyama-1.jpeg,./suiri-pictures/nishitakeyama-1.jpeg,2022/11/13 09:43:28,"<img src = ""./suiri-pictures/nishitakeyama-1.jpeg"" width=""300"" height=""225""/>",suisou
5e02c432-91d7-43e4-b5ef-b885659d84fc,shigara-1.jpeg,2022/11/13,07:44:00,131.011886111111,31.5834555555556,182.010206822455,T,336.571960297767,Apple,iPhone 11 Pro Max,,,/Users/soo-densan/Desktop/月野水利マップ_from20230912/img/suiri-pictures/shigara-1.jpeg,./suiri-pictures/shigara-1.jpeg,2022/11/13 07:44:00,"<img src = ""./suiri-pictures/shigara-1.jpeg"" width=""300"" height=""225""/>",suisou
29bf8e5f-db93-4153-a241-132a1095f2b5,ichibu-stsumesyo.jpeg,2022/05/08,08:43:24,131.017044444444,31.5755111111111,176.355095277548,T,241.392654297615,Apple,iPhone 11 Pro Max,,,/Users/soo-densan/Desktop/月野水利マップ_from20230912/img/suiri-pictures/ichibu-stsumesyo.jpeg,./suiri-pictures/ichibu-stsumesyo.jpeg,2022/05/08 08:43:24,"<img src = ""./suiri-pictures/ichibu-stsumesyo.jpeg"" width=""300"" height=""225""/>",suisou
0961c943-6ad6-42fe-8ec7-17bb937dc66b,hachigoubaru-3.jpeg,2022/11/13,10:04:50,131.013961111111,31.5794944444444,176.068557736899,T,113.395916052184,Apple,iPhone 11 Pro Max,,,/Users/soo-densan/Desktop/月野水利マップ_from20230912/img/suiri-pictures/hachigoubaru-3.jpeg,./suiri-pictures/hachigoubaru-3.jpeg,2022/11/13 10:04:50,"<img src = ""./suiri-pictures/hachigoubaru-3.jpeg"" width=""300"" height=""225""/>",suisou
96bc4070-bae0-479b-95f2-8682af4babaf,makibaru-1.jpeg,2020/11/15,13:42:40,130.989686111111,31.5714222222222,94.2933197694134,T,226.914016736402,Apple,iPhone X,,,/Users/soo-densan/Desktop/月野水利マップ_from20230912/img/suiri-pictures/makibaru-1.jpeg,./suiri-pictures/makibaru-1.jpeg,2020/11/15 13:42:40,"<img src = ""./suiri-pictures/makibaru-1.jpeg"" width=""300"" height=""225""/>",suisou
9a213831-95fc-42a9-a0bc-eafdc6111763,hachigobaru-4.jpeg,2022/11/13,09:32:44,131.016725,31.5763277777778,172.260726974583,T,320.777587681779,Apple,iPhone 11 Pro Max,,,/Users/soo-densan/Desktop/月野水利マップ_from20230912/img/suiri-pictures/hachigobaru-4.jpeg,./suiri-pictures/hachigobaru-4.jpeg,2022/11/13 09:32:44,"<img src = ""./suiri-pictures/hachigobaru-4.jpeg"" width=""300"" height=""225""/>",suisou
2adc8ebd-7e33-410a-a259-ff76f1906b3b,pipe-line2_kubosaki.jpeg,2020/03/01,10:49:12,131.004441666667,31.5334972222222,90.2412681354111,T,293.25439453125,Apple,iPhone X,,,/Users/soo-densan/Desktop/月野水利マップ_from20230912/img/suiri-pictures/pipe-line2_kubosaki.jpeg,./suiri-pictures/pipe-line2_kubosaki.jpeg,2020/03/01 10:49:12,"<img src = ""./suiri-pictures/pipe-line2_kubosaki.jpeg"" width=""300"" height=""225""/>",pipeline
0218aa1d-d98b-455a-906e-c3c4abf2017b,ichishiba-3.jpeg,2022/11/13,10:22:56,131.026091666667,31.5567944444444,98.9392384553065,T,152.625019092714,Apple,iPhone 11 Pro Max,,,/Users/soo-densan/Desktop/月野水利マップ_from20230912/img/suiri-pictures/ichishiba-3.jpeg,./suiri-pictures/ichishiba-3.jpeg,2022/11/13 10:22:56,"<img src = ""./suiri-pictures/ichishiba-3.jpeg"" width=""300"" height=""225""/>",suisou
585c10ef-2df8-478d-9844-8c7db5041559,nawase-6.jpeg,2020/03/01,11:06:29,131.026261111111,31.5425333333333,123.478569017887,T,160.272857655073,Apple,iPhone X,,,/Users/soo-densan/Desktop/月野水利マップ_from20230912/img/suiri-pictures/nawase-6.jpeg,./suiri-pictures/nawase-6.jpeg,2020/03/01 11:06:29,"<img src = ""./suiri-pictures/nawase-6.jpeg"" width=""300"" height=""225""/>",suisou
e7357d8a-01ca-43c6-964f-72b25a6de277,ootao-1.jpeg,2022/11/13,08:20:35,131.031997222222,31.5778305555556,139.671602326811,T,152.568725653868,Apple,iPhone 11 Pro Max,,,/Users/soo-densan/Desktop/月野水利マップ_from20230912/img/suiri-pictures/ootao-1.jpeg,./suiri-pictures/ootao-1.jpeg,2022/11/13 08:20:35,"<img src = ""./suiri-pictures/ootao-1.jpeg"" width=""300"" height=""225""/>",suisou
9d6f85c0-1ed3-499d-a562-24dec1ed9c6e,hirotsuda-3.jpeg,2022/05/08,10:28:29,131.002883333333,31.560325,84.1049802938015,T,172.06954971021,Apple,iPhone 11 Pro Max,,,/Users/soo-densan/Desktop/月野水利マップ_from20230912/img/suiri-pictures/hirotsuda-3.jpeg,./suiri-pictures/hirotsuda-3.jpeg,2022/05/08 10:28:29,"<img src = ""./suiri-pictures/hirotsuda-3.jpeg"" width=""300"" height=""225""/>",suisou
749c1a04-547b-4951-966c-d1e1c9a32c8a,okamoto-2.jpeg,2020/11/15,13:38:08,130.986191666667,31.5742972222222,101.949512335055,T,298.136062612884,Apple,iPhone X,,,/Users/soo-densan/Desktop/月野水利マップ_from20230912/img/suiri-pictures/okamoto-2.jpeg,./suiri-pictures/okamoto-2.jpeg,2020/11/15 13:38:08,"<img src = ""./suiri-pictures/okamoto-2.jpeg"" width=""300"" height=""225""/>",suisou
0822da47-4322-4023-8055-d9cd00bffa1c,kanzei-3.jpeg,2020/11/15,14:14:55,131.001480555556,31.5677611111111,130.810176831469,T,51.402885386054,Apple,iPhone X,,,/Users/soo-densan/Desktop/月野水利マップ_from20230912/img/suiri-pictures/kanzei-3.jpeg,./suiri-pictures/kanzei-3.jpeg,2020/11/15 14:14:55,"<img src = ""./suiri-pictures/kanzei-3.jpeg"" width=""300"" height=""225""/>",suisou
2f837e32-bd9f-4e5c-b0c7-e19b2f66452d,nawase-1.jpeg,2023/03/05,08:50:02,131.023680555556,31.5410222222222,117.826425788169,T,328.713058419244,Apple,iPhone 11 Pro Max,,,/Users/soo-densan/Desktop/月野水利マップ_from20230912/img/suiri-pictures/nawase-1.jpeg,./suiri-pictures/nawase-1.jpeg,2023/03/05 08:50:02,"<img src = ""./suiri-pictures/nawase-1.jpeg"" width=""300"" height=""225""/>",suisou
a8cb4fe7-39f8-47f8-826b-1e1261c22f80,hachigobaru-ue-1.jpeg,2022/11/13,07:15:20,131.007766666667,31.5729833333333,183.41223155929,T,221.014755197854,Apple,iPhone 11 Pro Max,,,/Users/soo-densan/Desktop/月野水利マップ_from20230912/img/suiri-pictures/hachigobaru-ue-1.jpeg,./suiri-pictures/hachigobaru-ue-1.jpeg,2022/11/13 07:15:20,"<img src = ""./suiri-pictures/hachigobaru-ue-1.jpeg"" width=""300"" height=""225""/>",suisou
9fac5e93-087f-4d35-93b9-0524c66143f4,tunnel-1.JPG,2018/11/11,09:43:56,130.997086111111,31.5405722222222,77.1121521080187,M,3.6964111328125,Apple,iPhone 6s,,,/Users/soo-densan/Desktop/月野水利マップ_from20230912/img/suiri-pictures/tunnel-1.JPG,./suiri-pictures/tunnel-1.JPG,2018/11/11 09:43:56,"<img src = ""./suiri-pictures/tunnel-1.JPG"" width=""300"" height=""225""/>",shizensuiri
11834b12-38ce-42cc-bcb2-3b74c9bac32f,okamoto-3.jpeg,2020/11/15,13:22:26,130.983444444444,31.5736861111111,152.448638838475,T,339.366851595007,Apple,iPhone X,,,/Users/soo-densan/Desktop/月野水利マップ_from20230912/img/suiri-pictures/okamoto-3.jpeg,./suiri-pictures/okamoto-3.jpeg,2020/11/15 13:22:26,"<img src = ""./suiri-pictures/okamoto-3.jpeg"" width=""300"" height=""225""/>",suisou
655bf799-9d9c-4874-bf4c-992586636d36,kanzei-2.jpeg,2020/11/15,14:16:55,131.000777777778,31.5662638888889,101.765918738629,T,148.644958583262,Apple,iPhone X,,,/Users/soo-densan/Desktop/月野水利マップ_from20230912/img/suiri-pictures/kanzei-2.jpeg,./suiri-pictures/kanzei-2.jpeg,2020/11/15 14:16:55,"<img src = ""./suiri-pictures/kanzei-2.jpeg"" width=""300"" height=""225""/>",suisou
1c0c7c7b-f5b7-4f6c-ac1a-1ea36b16ce73,hirotsuda-2.jpeg,2022/05/08,10:43:57,131.006438888889,31.5615583333333,126.347449908925,T,2.86020755885998,Apple,iPhone 11 Pro Max,,,/Users/soo-densan/Desktop/月野水利マップ_from20230912/img/suiri-pictures/hirotsuda-2.jpeg,./suiri-pictures/hirotsuda-2.jpeg,2022/05/08 10:43:57,"<img src = ""./suiri-pictures/hirotsuda-2.jpeg"" width=""300"" height=""225""/>",suisou
791e3544-c91b-4a24-aa19-53290107054c,kamioka-1.jpeg,2020/11/15,13:02:56,130.996886111111,31.5622111111111,103.032188377619,T,2.04377317536402,Apple,iPhone X,,,/Users/soo-densan/Desktop/月野水利マップ_from20230912/img/suiri-pictures/kamioka-1.jpeg,./suiri-pictures/kamioka-1.jpeg,2020/11/15 13:02:56,"<img src = ""./suiri-pictures/kamioka-1.jpeg"" width=""300"" height=""225""/>",suisou
5a41ef68-4efb-4a54-a94e-25cf0e6bc36d,nakamura-1.jpeg,2023/03/05,10:24:34,131.000763888889,31.5532694444444,80.2977608384945,T,225.665268065268,Apple,iPhone 11 Pro Max,,,/Users/soo-densan/Desktop/月野水利マップ_from20230912/img/suiri-pictures/nakamura-1.jpeg,./suiri-pictures/nakamura-1.jpeg,2023/03/05 10:24:34,"<img src = ""./suiri-pictures/nakamura-1.jpeg"" width=""300"" height=""225""/>",shizensuiri
091428a7-d90e-4102-9386-45743a108ea2,shigara-5.jpeg,2022/11/13,08:06:08,131.023575,31.5822083333333,163.14099378882,T,95.6293106090795,Apple,iPhone 11 Pro Max,,,/Users/soo-densan/Desktop/月野水利マップ_from20230912/img/suiri-pictures/shigara-5.jpeg,./suiri-pictures/shigara-5.jpeg,2022/11/13 08:06:08,"<img src = ""./suiri-pictures/shigara-5.jpeg"" width=""300"" height=""225""/>",suisou
1733b419-7074-4798-b0b4-f6d709271190,hirotsuda-1.jpeg,2022/05/08,10:56:46,131.004136111111,31.5613416666667,88.7129943502825,T,340.795166163142,Apple,iPhone 11 Pro Max,,,/Users/soo-densan/Desktop/月野水利マップ_from20230912/img/suiri-pictures/hirotsuda-1.jpeg,./suiri-pictures/hirotsuda-1.jpeg,2022/05/08 10:56:46,"<img src = ""./suiri-pictures/hirotsuda-1.jpeg"" width=""300"" height=""225""/>",suisou
c6bff601-8be9-488c-9127-f75f1255f95e,nakano-1.jpeg,2020/11/15,13:08:21,130.996352777778,31.5674277777778,99.948272676889,T,108.915130568356,Apple,iPhone X,,,/Users/soo-densan/Desktop/月野水利マップ_from20230912/img/suiri-pictures/nakano-1.jpeg,./suiri-pictures/nakano-1.jpeg,2020/11/15 13:08:21,"<img src = ""./suiri-pictures/nakano-1.jpeg"" width=""300"" height=""225""/>",suisou
63c73409-b64c-40a6-a83a-31005c86de69,hachigobaru-ue-2.jpeg,2022/11/13,07:11:22,131.007155555556,31.5722222222222,179.555601317957,T,271.258148148148,Apple,iPhone 11 Pro Max,,,/Users/soo-densan/Desktop/月野水利マップ_from20230912/img/suiri-pictures/hachigobaru-ue-2.jpeg,./suiri-pictures/hachigobaru-ue-2.jpeg,2022/11/13 07:11:22,"<img src = ""./suiri-pictures/hachigobaru-ue-2.jpeg"" width=""300"" height=""225""/>",suisou
1a20d0d4-78b0-4ccf-b5ec-93a63e0a1537,mochidome-1.jpeg,2020/11/15,13:59:46,130.996644444444,31.5709722222222,94.6147766323024,T,350.694885361552,Apple,iPhone X,,,/Users/soo-densan/Desktop/月野水利マップ_from20230912/img/suiri-pictures/mochidome-1.jpeg,./suiri-pictures/mochidome-1.jpeg,2020/11/15 13:59:46,"<img src = ""./suiri-pictures/mochidome-1.jpeg"" width=""300"" height=""225""/>",shizensuiri
baa199a7-132a-4efc-9efa-c5a8d4eb2739,fujigamine-2.jpeg,2023/03/05,09:38:08,130.984086111111,31.5499277777778,159.981447963801,T,214.53838332486,Apple,iPhone 11 Pro Max,,,/Users/soo-densan/Desktop/月野水利マップ_from20230912/img/suiri-pictures/fujigamine-2.jpeg,./suiri-pictures/fujigamine-2.jpeg,2023/03/05 09:38:08,"<img src = ""./suiri-pictures/fujigamine-2.jpeg"" width=""300"" height=""225""/>",suisou
bc2d8891-9ea0-4cb1-be2b-fa9b4c27c6f2,nawase-3.jpeg,2023/03/05,08:40:36,131.024641666667,31.5424777777778,97.5588117221999,T,162.356781091728,Apple,iPhone 11 Pro Max,,,/Users/soo-densan/Desktop/月野水利マップ_from20230912/img/suiri-pictures/nawase-3.jpeg,./suiri-pictures/nawase-3.jpeg,2023/03/05 08:40:36,"<img src = ""./suiri-pictures/nawase-3.jpeg"" width=""300"" height=""225""/>",suisou
af423b6e-4709-4ac8-8e25-94706988be38,tsumagari-1.jpeg,2022/11/13,10:39:04,131.013611111111,31.5647138888889,171.453257396861,T,354.736450144808,Apple,iPhone 11 Pro Max,,,/Users/soo-densan/Desktop/月野水利マップ_from20230912/img/suiri-pictures/tsumagari-1.jpeg,./suiri-pictures/tsumagari-1.jpeg,2022/11/13 10:39:04,"<img src = ""./suiri-pictures/tsumagari-1.jpeg"" width=""300"" height=""225""/>",suisou
8618de34-295b-4807-a9f0-ca5f202a9804,nawase-2.jpeg,2023/03/05,08:49:00,131.023711111111,31.5410527777778,114.667085743022,T,180.251709136109,Apple,iPhone 11 Pro Max,,,/Users/soo-densan/Desktop/月野水利マップ_from20230912/img/suiri-pictures/nawase-2.jpeg,./suiri-pictures/nawase-2.jpeg,2023/03/05 08:49:00,"<img src = ""./suiri-pictures/nawase-2.jpeg"" width=""300"" height=""225""/>",suisou
a13e1b31-d53a-48fe-bab3-8ca52ec443b5,kubosaki-2.jpeg,2020/03/01,10:52:18,131.005555555556,31.5336111111111,94.1787262420807,T,192.415313734094,Apple,iPhone X,,,/Users/soo-densan/Desktop/月野水利マップ_from20230912/img/suiri-pictures/kubosaki-2.jpeg,./suiri-pictures/kubosaki-2.jpeg,2020/03/01 10:52:18,"<img src = ""./suiri-pictures/kubosaki-2.jpeg"" width=""300"" height=""225""/>",suisou
c088b4ff-f2b8-4c99-8fa3-25077b3742c0,fujigamine-3.jpeg,2023/03/05,09:15:31,130.9906,31.5520333333333,143.506971755452,T,310.192687747036,Apple,iPhone 11 Pro Max,,,/Users/soo-densan/Desktop/月野水利マップ_from20230912/img/suiri-pictures/fujigamine-3.jpeg,./suiri-pictures/fujigamine-3.jpeg,2023/03/05 09:15:31,"<img src = ""./suiri-pictures/fujigamine-3.jpeg"" width=""300"" height=""225""/>",suisou
7bacd845-6f8f-4256-8cb2-67e2ccf74742,matsuoda-1.jpeg,2020/11/15,13:11:01,130.993697222222,31.5687388888889,130.375457875458,T,209.779419005416,Apple,iPhone X,,,/Users/soo-densan/Desktop/月野水利マップ_from20230912/img/suiri-pictures/matsuoda-1.jpeg,./suiri-pictures/matsuoda-1.jpeg,2020/11/15 13:11:01,"<img src = ""./suiri-pictures/matsuoda-1.jpeg"" width=""300"" height=""225""/>",shizensuiri
3bf536c9-4ff3-4997-afc9-0b44f8a21c15,ootao-2.jpeg,2022/11/13,08:20:01,131.031661111111,31.5778083333333,142.880880448856,T,186.152847152847,Apple,iPhone 11 Pro Max,,,/Users/soo-densan/Desktop/月野水利マップ_from20230912/img/suiri-pictures/ootao-2.jpeg,./suiri-pictures/ootao-2.jpeg,2022/11/13 08:20:01,"<img src = ""./suiri-pictures/ootao-2.jpeg"" width=""300"" height=""225""/>",suisou
dbe31804-6bbc-4ae3-a3f7-1ad5da40b000,kawakkubo-2.jpeg,2020/03/01,11:17:55,131.000075,31.5511083333333,123.478569017887,T,144.013442867812,Apple,iPhone X,,,/Users/soo-densan/Desktop/月野水利マップ_from20230912/img/suiri-pictures/kawakkubo-2.jpeg,./suiri-pictures/kawakkubo-2.jpeg,2020/03/01 11:17:55,"<img src = ""./suiri-pictures/kawakkubo-2.jpeg"" width=""300"" height=""225""/>",suisou
e3056ba0-795f-4f7b-b9b4-c0b304ef6ca7,shigara-4.jpeg,2022/11/13,08:01:36,131.022322222222,31.5818583333333,176.659172661871,T,81.7241515390687,Apple,iPhone 11 Pro Max,,,/Users/soo-densan/Desktop/月野水利マップ_from20230912/img/suiri-pictures/shigara-4.jpeg,./suiri-pictures/shigara-4.jpeg,2022/11/13 08:01:36,"<img src = ""./suiri-pictures/shigara-4.jpeg"" width=""300"" height=""225""/>",suisou
dae2bdfd-6e51-4354-91d3-b6760c483df0,okamoto-1.jpeg,2020/11/15,13:41:20,130.987838888889,31.5739527777778,96.2176818298638,T,94.2961454089627,Apple,iPhone X,,,/Users/soo-densan/Desktop/月野水利マップ_from20230912/img/suiri-pictures/okamoto-1.jpeg,./suiri-pictures/okamoto-1.jpeg,2020/11/15 13:41:20,"<img src = ""./suiri-pictures/okamoto-1.jpeg"" width=""300"" height=""225""/>",shizensuiri
cf3d797a-180c-4a08-b1ed-eee68196d21d,shirasaka-1.jpeg,2022/11/13,08:35:01,131.03325,31.5746166666667,130.247220163084,T,92.8615994057935,Apple,iPhone 11 Pro Max,,,/Users/soo-densan/Desktop/月野水利マップ_from20230912/img/suiri-pictures/shirasaka-1.jpeg,./suiri-pictures/shirasaka-1.jpeg,2022/11/13 08:35:01,"<img src = ""./suiri-pictures/shirasaka-1.jpeg"" width=""300"" height=""225""/>",suisou
041b093a-f2f9-4fe7-9a56-407dc7fc0ec0,hachigobaru-ue-4.jpeg,2022/11/13,07:33:21,131.008775,31.574325,183.006227758007,T,263.384124734231,Apple,iPhone 11 Pro Max,,,/Users/soo-densan/Desktop/月野水利マップ_from20230912/img/suiri-pictures/hachigobaru-ue-4.jpeg,./suiri-pictures/hachigobaru-ue-4.jpeg,2022/11/13 07:33:21,"<img src = ""./suiri-pictures/hachigobaru-ue-4.jpeg"" width=""300"" height=""225""/>",suisou
8d646ec7-d257-49b8-b264-3ec7476d02bc,kanzei-1.JPG,2018/11/11,12:45:51,130.998961111111,31.5691611111111,95.8180083937428,M,243.398162939297,Apple,iPhone 6s,,,/Users/soo-densan/Desktop/月野水利マップ_from20230912/img/suiri-pictures/kanzei-1.JPG,./suiri-pictures/kanzei-1.JPG,2018/11/11 12:45:51,"<img src = ""./suiri-pictures/kanzei-1.JPG"" width=""300"" height=""225""/>",shizensuiri
c4f5eee0-9d1d-4c2f-9faa-ddf550659bfa,nawase-5.jpeg,2020/03/01,11:01:19,131.024016666667,31.5395055555556,123.478569017887,T,302.980621347278,Apple,iPhone X,,,/Users/soo-densan/Desktop/月野水利マップ_from20230912/img/suiri-pictures/nawase-5.jpeg,./suiri-pictures/nawase-5.jpeg,2020/03/01 11:01:19,"<img src = ""./suiri-pictures/nawase-5.jpeg"" width=""300"" height=""225""/>",suisou
f79594e3-0d6c-4ed2-ba4c-e0db26b674c8,hiraki-3.jpeg,2022/05/08,10:04:31,130.979094444444,31.574725,134.505035434539,T,79.5844421699079,Apple,iPhone 11 Pro Max,,,/Users/soo-densan/Desktop/月野水利マップ_from20230912/img/suiri-pictures/hiraki-3.jpeg,./suiri-pictures/hiraki-3.jpeg,2022/05/08 10:04:31,"<img src = ""./suiri-pictures/hiraki-3.jpeg"" width=""300"" height=""225""/>",suisou
a38a2e85-f0f6-4b81-bb08-7a7ad0ecbaaa,shigara-3.jpeg,2022/11/13,07:54:37,131.01625,31.5834055555556,180.241996744438,T,159.16447450833,Apple,iPhone 11 Pro Max,,,/Users/soo-densan/Desktop/月野水利マップ_from20230912/img/suiri-pictures/shigara-3.jpeg,./suiri-pictures/shigara-3.jpeg,2022/11/13 07:54:37,"<img src = ""./suiri-pictures/shigara-3.jpeg"" width=""300"" height=""225""/>",suisou
bc6396e4-ee4a-40d2-b3c4-9f90f4a67366,shigara6.jpeg,2022/11/13,09:40:35,131.026183333333,31.5831361111111,167.689742937134,T,35.9674987642116,Apple,iPhone 11 Pro Max,,,/Users/soo-densan/Desktop/月野水利マップ_from20230912/img/suiri-pictures/shigara6.jpeg,./suiri-pictures/shigara6.jpeg,2022/11/13 09:40:35,"<img src = ""./suiri-pictures/shigara6.jpeg"" width=""300"" height=""225""/>",suisou
f8426458-59e9-4221-9dfd-6b210fa17b38,makibaru-2.jpeg,2020/11/15,13:49:47,130.990905555556,31.5721388888889,84.9739685658153,T,247.207656893627,Apple,iPhone X,,,/Users/soo-densan/Desktop/月野水利マップ_from20230912/img/suiri-pictures/makibaru-2.jpeg,./suiri-pictures/makibaru-2.jpeg,2020/11/15 13:49:47,"<img src = ""./suiri-pictures/makibaru-2.jpeg"" width=""300"" height=""225""/>",suisou
2a2e7acc-b673-441e-9fd0-8c9b650f3864,kuwazuru-1.jpeg,2023/03/05,09:52:54,130.994597222222,31.5386111111111,139.547885796892,T,59.6009216589862,Apple,iPhone 11 Pro Max,,,/Users/soo-densan/Desktop/月野水利マップ_from20230912/img/suiri-pictures/kuwazuru-1.jpeg,./suiri-pictures/kuwazuru-1.jpeg,2023/03/05 09:52:54,"<img src = ""./suiri-pictures/kuwazuru-1.jpeg"" width=""300"" height=""225""/>",suisou
a106b594-f2e2-4cef-996e-60bd2be342ae,makibaru-3.jpeg,2020/11/15,13:53:29,130.992827777778,31.5718472222222,94.8475646422129,T,173.842834310069,Apple,iPhone X,,,/Users/soo-densan/Desktop/月野水利マップ_from20230912/img/suiri-pictures/makibaru-3.jpeg,./suiri-pictures/makibaru-3.jpeg,2020/11/15 13:53:29,"<img src = ""./suiri-pictures/makibaru-3.jpeg"" width=""300"" height=""225""/>",suisou
e5f8fe80-b397-4919-8c40-170c599482fa,hachigoubaru-1.jpeg,2022/11/13,10:00:05,131.016922222222,31.5777138888889,172.729400749064,T,34.9744567921712,Apple,iPhone 11 Pro Max,,,/Users/soo-densan/Desktop/月野水利マップ_from20230912/img/suiri-pictures/hachigoubaru-1.jpeg,./suiri-pictures/hachigoubaru-1.jpeg,2022/11/13 10:00:05,"<img src = ""./suiri-pictures/hachigoubaru-1.jpeg"" width=""300"" height=""225""/>",suisou
0e0efc9e-2b2e-4af2-8d61-f50a35b2c845,hiraki-1.JPG,2018/11/11,08:51:25,130.981383333333,31.5771722222222,100.950531022918,M,134.298614429049,Apple,iPhone 6s,,,/Users/soo-densan/Desktop/月野水利マップ_from20230912/img/suiri-pictures/hiraki-1.JPG,./suiri-pictures/hiraki-1.JPG,2018/11/11 08:51:25,"<img src = ""./suiri-pictures/hiraki-1.JPG"" width=""300"" height=""225""/>",shizensuiri
84ac7bb6-3045-4505-b5cf-c16bb5c45158,iwamoto-1.jpeg,2020/03/01,10:30:25,131.000397222222,31.5395472222222,155.010250102501,T,85.7134399052694,Apple,iPhone X,,,/Users/soo-densan/Desktop/月野水利マップ_from20230912/img/suiri-pictures/iwamoto-1.jpeg,./suiri-pictures/iwamoto-1.jpeg,2020/03/01 10:30:25,"<img src = ""./suiri-pictures/iwamoto-1.jpeg"" width=""300"" height=""225""/>",suisou
5e48d9ce-2adc-42dc-9082-6827bd844a58,tsukinosyo-2.jpeg,2020/11/15,13:00:11,130.999619444444,31.5624,95.04736328125,T,80.3712234519892,Apple,iPhone X,,,/Users/soo-densan/Desktop/月野水利マップ_from20230912/img/suiri-pictures/tsukinosyo-2.jpeg,./suiri-pictures/tsukinosyo-2.jpeg,2020/11/15 13:00:11,"<img src = ""./suiri-pictures/tsukinosyo-2.jpeg"" width=""300"" height=""225""/>",suisou
9342a165-b7b1-46fb-81cd-6fac57a6a9c9,shigara-2.jpeg,2022/11/13,07:49:23,131.016205555556,31.5835083333333,180.412666397741,T,153.21270754347,Apple,iPhone 11 Pro Max,,,/Users/soo-densan/Desktop/月野水利マップ_from20230912/img/suiri-pictures/shigara-2.jpeg,./suiri-pictures/shigara-2.jpeg,2022/11/13 07:49:23,"<img src = ""./suiri-pictures/shigara-2.jpeg"" width=""300"" height=""225""/>",suisou
acc3ab91-6c88-40ce-8f61-1154ab34f2db,nishitakeyama-2.jpeg,2022/11/13,09:49:17,131.0242,31.5697055555556,164.11691633175,T,275.462753175421,Apple,iPhone 11 Pro Max,,,/Users/soo-densan/Desktop/月野水利マップ_from20230912/img/suiri-pictures/nishitakeyama-2.jpeg,./suiri-pictures/nishitakeyama-2.jpeg,2022/11/13 09:49:17,"<img src = ""./suiri-pictures/nishitakeyama-2.jpeg"" width=""300"" height=""225""/>",suisou
8cba8e63-e9ed-4fa1-8dd6-673d684006a3,hiraki-2.jpeg,2020/11/15,13:32:58,130.979783333333,31.5756027777778,117.791412380122,T,204.40937829294,Apple,iPhone X,,,/Users/soo-densan/Desktop/月野水利マップ_from20230912/img/suiri-pictures/hiraki-2.jpeg,./suiri-pictures/hiraki-2.jpeg,2020/11/15 13:32:58,"<img src = ""./suiri-pictures/hiraki-2.jpeg"" width=""300"" height=""225""/>",suisou
f5c4d38a-01bc-4412-a81c-88ac79a95bb0,nawase-4.jpeg,2023/03/05,08:35:56,131.025925,31.5440055555556,76.3213436385256,T,112.7065581618,Apple,iPhone 11 Pro Max,,,/Users/soo-densan/Desktop/月野水利マップ_from20230912/img/suiri-pictures/nawase-4.jpeg,./suiri-pictures/nawase-4.jpeg,2023/03/05 08:35:56,"<img src = ""./suiri-pictures/nawase-4.jpeg"" width=""300"" height=""225""/>",shizensuiri
0c46513e-df3b-45d9-b014-cb4568b64d59,ichishiba-1.jpeg,2022/11/13,10:32:18,131.024522222222,31.5578277777778,113.897651750111,T,204.659011830202,Apple,iPhone 11 Pro Max,,,/Users/soo-densan/Desktop/月野水利マップ_from20230912/img/suiri-pictures/ichishiba-1.jpeg,./suiri-pictures/ichishiba-1.jpeg,2022/11/13 10:32:18,"<img src = ""./suiri-pictures/ichishiba-1.jpeg"" width=""300"" height=""225""/>",suisou
a4240609-4e4d-4ae1-8df4-6de391a332c4,kubosaki-4.jpeg,2020/03/01,10:48:26,131.004333333333,31.5329027777778,146.303009097271,T,111.461486713757,Apple,iPhone X,,,/Users/soo-densan/Desktop/月野水利マップ_from20230912/img/suiri-pictures/kubosaki-4.jpeg,./suiri-pictures/kubosaki-4.jpeg,2020/03/01 10:48:26,"<img src = ""./suiri-pictures/kubosaki-4.jpeg"" width=""300"" height=""225""/>",suisou
a37cc710-4324-4f52-9796-f3414c22aa63,kawakubo-1.jpeg,2023/03/05,10:07:37,131.000091666667,31.5514444444444,91.9462560386473,T,285.544830544831,Apple,iPhone 11 Pro Max,,,/Users/soo-densan/Desktop/月野水利マップ_from20230912/img/suiri-pictures/kawakubo-1.jpeg,./suiri-pictures/kawakubo-1.jpeg,2023/03/05 10:07:37,"<img src = ""./suiri-pictures/kawakubo-1.jpeg"" width=""300"" height=""225""/>",suisou
6b357377-804e-4979-a21f-d9197c0e91cb,pipe-line1_hachigobaru.jpeg,2022/11/13,07:19:55,131.005827777778,31.5731527777778,178.827076923077,T,328.672485453034,Apple,iPhone 11 Pro Max,,,/Users/soo-densan/Desktop/月野水利マップ_from20230912/img/suiri-pictures/pipe-line1_hachigobaru.jpeg,./suiri-pictures/pipe-line1_hachigobaru.jpeg,2022/11/13 07:19:55,"<img src = ""./suiri-pictures/pipe-line1_hachigobaru.jpeg"" width=""300"" height=""225""/>",pipeline
cb9e7ae0-b8aa-473a-81c4-c83d8cbd6b5b,IMG_4524.jpeg,2020/03/01,10:59:15,130.995833333333,31.5106361111111,114.201393095094,T,190.124526873581,Apple,iPhone X,,,/Users/soo-densan/Desktop/月野水利マップ_from20230912/img/suiri-pictures/場所不定/IMG_4524.jpeg,./suiri-pictures/IMG_4524.jpeg,2020/03/01 10:59:15,"<img src = ""./suiri-pictures/IMG_4524.jpeg"" width=""300"" height=""225""/>",suisou
1e311e73-f4aa-46d5-9d49-a613a07d2725,IMG_4507.jpeg,2020/03/01,10:07:59,130.962066666667,31.5501027777778,179.119995117188,T,145.928893905192,Apple,iPhone X,,,/Users/soo-densan/Desktop/月野水利マップ_from20230912/img/suiri-pictures/場所不定/IMG_4507.jpeg,./suiri-pictures/IMG_4507.jpeg,2020/03/01 10:07:59,"<img src = ""./suiri-pictures/IMG_4507.jpeg"" width=""300"" height=""225""/>",suisou
